{
  "stations": [
    {
      "station_id": "ISAINT6228",
      "name": "Saint-Eustache 30",
      "city": "Saint-Eustache",
      "latitude": 45.5653,
      "longitude": -73.9057,
      "active": true
    },
    {
      "station_id": "ISAINT1660",
      "name": "Saint-Eustache 26",
      "city": "Saint-Eustache",
      "latitude": 45.581,
      "longitude": -73.895,
      "active": true
    },
    {
      "station_id": "IQUBECSA47",
      "name": "MartiNaud",
      "city": "Sainte-Marthe-sur-le-Lac",
      "latitude": 45.534,
      "longitude": -73.949,
      "active": true
    },
    {
      "station_id": "IQUBECBO2",
      "name": "Boisbriand 29",
      "city": "Boisbriand",
      "latitude": 45.595,
      "longitude": -73.84,
      "active": true
    },
    {
      "station_id": "IMONTR178",
      "name": "Guillaume",
      "city": "Montreal",
      "latitude": 45.541,
      "longitude": -73.541,
      "active": true
    },
    {
      "station_id": "ISAINT7819",
      "name": "Daref93",
      "city": "Saint-Joseph-du-Lac",
      "latitude": 45.499,
      "longitude": -73.99,
      "active": true
    },
    {
      "station_id": "ILAVAL254",
      "name": "Station Freyja2",
      "city": "Laval",
      "latitude": 45.558,
      "longitude": -73.855,
      "active": true
    },
    {
      "station_id": "ILAVAL247",
      "name": "StorageMart Weather Station",
      "city": "Laval",
      "latitude": 45.575,
      "longitude": -73.716,
      "active": true
    },
    {
      "station_id": "ILAVAL202",
      "name": "Logia 7-in1",
      "city": "Laval",
      "latitude": 45.536,
      "longitude": -73.746,
      "active": true
    },
    {
      "station_id": "IMONTR58",
      "name": "Petite Bourgogne",
      "city": "Montreal",
      "latitude": 45.486,
      "longitude": -73.572,
      "active": true
    },
    {
      "station_id": "IMONTR57",
      "name": "Montreal West weather station",
      "city": "Montreal West",
      "latitude": 45.454,
      "longitude": -73.649,
      "active": true
    },
    {
      "station_id": "IMONTR76",
      "name": "Pointe-aux-Trembles",
      "city": "Montreal",
      "latitude": 45.646,
      "longitude": -73.509,
      "active": true
    },
    {
      "station_id": "IMONTR174",
      "name": "MTLNORD-11264",
      "city": "Montreal",
      "latitude": 45.6,
      "longitude": -73.629,
      "active": true
    },
    {
      "station_id": "IVERDU19",
      "name": "Ecowitt gw1103",
      "city": "Verdun",
      "latitude": 45.474,
      "longitude": -73.57,
      "active": true
    },
    {
      "station_id": "ILONGU73",
      "name": "Christian Lavoie",
      "city": "Longueuil",
      "latitude": 45.525,
      "longitude": -73.449,
      "active": true
    },
    {
      "station_id": "IDEUXM2",
      "name": "Deux-Montagnes 26",
      "city": "Deux-Montagnes",
      "latitude": 45.534,
      "longitude": -73.949,
      "active": true
    },
    {
      "station_id": "ISAINT4076",
      "name": "Saint-Eustache 27",
      "city": "Saint-Eustache",
      "latitude": 45.57,
      "longitude": -73.89,
      "active": true
    },
    {
      "station_id": "IMONTR409",
      "name": "507 Toit",
      "city": "Montreal",
      "latitude": 45.527,
      "longitude": -73.55,
      "active": true
    },
    {
      "station_id": "IMONTR38",
      "name": "Maisonneuve-Viauville",
      "city": "Montreal",
      "latitude": 45.555,
      "longitude": -73.537,
      "active": true
    },
    {
      "station_id": "IMONTR256",
      "name": "Roud Ecowitt Masson",
      "city": "Montreal",
      "latitude": 45.559,
      "longitude": -73.569,
      "active": true
    },
    {
      "station_id": "IMONTR364",
      "name": "WS2320",
      "city": "Montreal",
      "latitude": 45.515,
      "longitude": -73.556,
      "active": true
    },
    {
      "station_id": "IDELSO5",
      "name": "DATA",
      "city": "Delson",
      "latitude": 45.398,
      "longitude": -73.54,
      "active": true
    },
    {
      "station_id": "ISAINT7536",
      "name": "Ste-Cat2024",
      "city": "Sainte-Catherine",
      "latitude": 45.403,
      "longitude": -73.569,
      "active": true
    },
    {
      "station_id": "ISAINT5443",
      "name": "house",
      "city": "Sainte-Catherine",
      "latitude": 45.392,
      "longitude": -73.57,
      "active": true
    },
    {
      "station_id": "ISAINT4089",
      "name": "M\u00e9t\u00e9o maison Saint-Constant",
      "city": "Saint-Constant",
      "latitude": 45.383,
      "longitude": -73.586,
      "active": true
    },
    {
      "station_id": "IVALDA7",
      "name": "Cottage",
      "city": "Val-David",
      "latitude": 46.043,
      "longitude": -74.157,
      "active": true
    },
    {
      "station_id": "IBOILE5",
      "name": "Sky Shack Lac Papineau-2024",
      "city": "Boileau",
      "latitude": 45.863,
      "longitude": -74.771,
      "active": true
    },
    {
      "station_id": "IARUND32",
      "name": "Arundel",
      "city": "Arundel",
      "latitude": 45.942,
      "longitude": -74.585,
      "active": true
    },
    {
      "station_id": "IMONTR51",
      "name": "Anse L Orme",
      "city": "Montreal",
      "latitude": 45.452,
      "longitude": -73.937,
      "active": true
    },
    {
      "station_id": "IPIERR61",
      "name": "Maison Pfds",
      "city": "Pierrefonds",
      "latitude": 45.47,
      "longitude": -73.869,
      "active": true
    }
  ]
}